[
  {
    "id": "695ef91e7acfb12e6059809e",
    "title": "10Âº Niver Red Foot MC",
    "description": "10Âº AniversÃ¡rio do Red Foot Moto Clube",
    "date": "2026-06-05",
    "city": "CafelÃ¢ndia",
    "state": "PR",
    "address": "",
    "latitude": "-24.6176963",
    "longitude": "-53.3218057",
    "map": "https://www.google.com/maps?q=-24.6176963,-53.3218057",
    "entry_type": "free",
    "entry_amount": ""
  },
  {
    "id": "695ef91e7acfb12e605980a1",
    "title": "2Âº Motofest Peabiru",
    "description": "2Âº Motofest de Peabiru",
    "date": "2026-06-20",
    "city": "Peabiru",
    "state": "PR",
    "address": "",
    "latitude": "-23.9142123",
    "longitude": "-52.3455598",
    "map": "https://www.google.com/maps?q=-23.9142123,-52.3455598",
    "entry_type": "free",
    "entry_amount": ""
  },
  {
    "id": "695ef91e7acfb12e605980a7",
    "title": "Moto AlmoÃ§o Minhocas do Asfalto",
    "description": "Moto AlmoÃ§o do Moto Grupo Minhocas do Asfalto",
    "date": "2026-10-18",
    "city": "Cascavel",
    "state": "PR",
    "address": "",
    "latitude": "-24.9554996",
    "longitude": "-53.4560544",
    "map": "https://www.google.com/maps?q=-24.9554996,-53.4560544",
    "entry_type": "free",
    "entry_amount": ""
  },
  {
    "id": "695ef91e7acfb12e6059809d",
    "title": "2Âº Moto Festival Amigos do Asfalto MG",
    "description": "2Âº Moto Festival do Moto Grupo Amigos do Asfalto",
    "date": "2026-05-15",
    "city": "Igrejinha",
    "state": "RS",
    "address": "",
    "latitude": "-29.569318",
    "longitude": "-50.791894",
    "map": "https://www.google.com/maps?q=-29.569318,-50.791894",
    "entry_type": "free",
    "entry_amount": ""
  },
  {
    "id": "695ef91e7acfb12e605980a3",
    "title": "8Âº Niver Lobos da 101 MC",
    "description": "8Âº AniversÃ¡rio do Moto Clube Lobos da 101",
    "date": "2026-07-11",
    "city": "Penha",
    "state": "SC",
    "address": "",
    "latitude": "-26.775418",
    "longitude": "-48.6465251",
    "map": "https://www.google.com/maps?q=-26.775418,-48.6465251",
    "entry_type": "free",
    "entry_amount": ""
  },
  {
    "id": "695ef91e7acfb12e6059809c",
    "title": "2Âº Acampa Salto",
    "description": "2Âº Acampamento de Motociclistas Salto do JacuÃ­",
    "date": "2026-05-15",
    "city": "Salto do JacuÃ­",
    "state": "RS",
    "address": "",
    "latitude": "-29.0899771",
    "longitude": "-53.2111244",
    "map": "https://www.google.com/maps?q=-29.0899771,-53.2111244",
    "entry_type": "free",
    "entry_amount": ""
  },
  {
    "id": "695ef91e7acfb12e605980a8",
    "title": "2Âº Moto Trindade",
    "description": "2Âº Moto Trindade - Encontro de Motociclistas",
    "date": "2026-11-07",
    "city": "Trindade do Sul",
    "state": "RS",
    "address": "",
    "latitude": "-27.5218951",
    "longitude": "-52.8986017",
    "map": "https://www.google.com/maps?q=-27.5218951,-52.8986017",
    "entry_type": "free",
    "entry_amount": ""
  },
  {
    "id": "695ef91e7acfb12e605980a4",
    "title": "Motoencuentro de la Amistad",
    "description": "Encuentro Internacional de Motociclistas de la Amistad",
    "date": "2026-07-17",
    "city": "Jardim AmÃ©rica",
    "state": "Misiones",
    "address": "",
    "latitude": "",
    "longitude": "",
    "map": "",
    "entry_type": "free",
    "entry_amount": ""
  },
  {
    "id": "695ef91e7acfb12e605980a9",
    "title": "12Âº Expo Moto GualeguaychÃº",
    "description": "12Âª ExposiÃ§Ã£o de Motocicletas em GualeguaychÃº",
    "date": "2026-11-13",
    "city": "GualeguaychÃº",
    "state": "Entre RÃ­os",
    "address": "",
    "latitude": "",
    "longitude": "",
    "map": "",
    "entry_type": "paid",
    "entry_amount": "200"
  },
  {
    "id": "695ef91e7acfb12e605980a6",
    "title": "Moto Amigo MondaÃ­",
    "description": "Moto Amigo - Encontro de Motociclistas em MondaÃ­",
    "date": "2026-09-18",
    "city": "MondaÃ­",
    "state": "SC",
    "address": "",
    "latitude": "-27.1020777",
    "longitude": "-53.399242",
    "map": "https://www.google.com/maps?q=-27.1020777,-53.399242",
    "entry_type": "free",
    "entry_amount": ""
  },
  {
    "id": "695ef91e7acfb12e6059809f",
    "title": "20Âº Niver MC Lebres do Asfalto",
    "description": "20Âº AniversÃ¡rio do Moto Clube Lebres do Asfalto",
    "date": "2026-06-13",
    "city": "Campo MourÃ£o",
    "state": "PR",
    "address": "",
    "latitude": "-24.046329",
    "longitude": "-52.37802",
    "map": "https://www.google.com/maps?q=-24.046329,-52.37802",
    "entry_type": "free",
    "entry_amount": ""
  },
  {
    "id": "695ef91e7acfb12e605980a2",
    "title": "Festival Rota 01 Ponta Grossa",
    "description": "Festival Rota 01 - Grande encontro de motociclistas",
    "date": "2026-07-04",
    "city": "Ponta Grossa",
    "state": "PR",
    "address": "",
    "latitude": "-25.0891685",
    "longitude": "-50.1601812",
    "map": "https://www.google.com/maps?q=-25.0891685,-50.1601812",
    "entry_type": "free",
    "entry_amount": ""
  },
  {
    "id": "695ef91e7acfb12e605980a5",
    "title": "5Âº Moto Encontro Casa Rural",
    "description": "5Âº Moto Encontro Casa Rural Barra do Ribeiro",
    "date": "2026-07-26",
    "city": "Barra do Ribeiro",
    "state": "RS",
    "address": "",
    "latitude": "-30.2925989",
    "longitude": "-51.3033906",
    "map": "https://www.google.com/maps?q=-30.2925989,-51.3033906",
    "entry_type": "free",
    "entry_amount": ""
  },
  {
    "id": "695ef91e7acfb12e6059809b",
    "title": "11Âº Niver CachorroÄ“s do Asfalto MC",
    "description": "11Âº AniversÃ¡rio do Moto Clube CachorroÄ“s do Asfalto",
    "date": "2026-05-09",
    "city": "Campo MourÃ£o",
    "state": "PR",
    "address": "",
    "latitude": "-24.046329",
    "longitude": "-52.37802",
    "map": "https://www.google.com/maps?q=-24.046329,-52.37802",
    "entry_type": "free",
    "entry_amount": ""
  },
  {
    "id": "695ef91e7acfb12e605980a0",
    "title": "4Âº BQ Custom Day",
    "description": "4Âº Brusque Custom Day - Encontro de motos customizadas",
    "date": "2026-06-19",
    "city": "Brusque",
    "state": "SC",
    "address": "",
    "latitude": "-27.0964628",
    "longitude": "-48.9136323",
    "map": "https://www.google.com/maps?q=-27.0964628,-48.9136323",
    "entry_type": "free",
    "entry_amount": ""
  },
  {
    "id": "695ef91e7acfb12e60598096",
    "title": "13Âº Niver DivisÃ£o do Norte MC",
    "description": "13Âº AniversÃ¡rio do Moto Clube DivisÃ£o do Norte",
    "date": "2026-04-18",
    "city": "Rio Negrinho",
    "state": "SC",
    "address": "",
    "latitude": "-26.259075",
    "longitude": "-49.517746",
    "map": "https://www.google.com/maps?q=-26.259075,-49.517746",
    "entry_type": "free",
    "entry_amount": ""
  },
  {
    "id": "695ef91e7acfb12e60598097",
    "title": "SCEV MC Moto Encontro",
    "description": "Moto Encontro do Santa Catarina Evento",
    "date": "2026-04-25",
    "city": "BiguaÃ§u",
    "state": "SC",
    "address": "",
    "latitude": "-27.4961076",
    "longitude": "-48.654111",
    "map": "https://www.google.com/maps?q=-27.4961076,-48.654111",
    "entry_type": "free",
    "entry_amount": ""
  },
  {
    "id": "695ef91e7acfb12e6059809a",
    "title": "Mar e Motos TramandaÃ­",
    "description": "Mar e Motos - Encontro de motociclistas no litoral gaÃºcho",
    "date": "2026-05-01",
    "city": "TramandaÃ­",
    "state": "RS",
    "address": "",
    "latitude": "-29.9855339",
    "longitude": "-50.1316076",
    "map": "https://www.google.com/maps?q=-29.9855339,-50.1316076",
    "entry_type": "free",
    "entry_amount": ""
  },
  {
    "id": "695ef91e7acfb12e60598095",
    "title": "2Âº Festival 2 Rodas Horizontina",
    "description": "2Âº Festival 2 Rodas - Grande encontro regional",
    "date": "2026-04-17",
    "city": "Horizontina",
    "state": "RS",
    "address": "",
    "latitude": "-27.627931",
    "longitude": "-54.3090256",
    "map": "https://www.google.com/maps?q=-27.627931,-54.3090256",
    "entry_type": "free",
    "entry_amount": ""
  },
  {
    "id": "695ef91e7acfb12e60598099",
    "title": "23Âº Niver MG Barulhentos",
    "description": "23Âº AniversÃ¡rio do Moto Grupo Barulhentos",
    "date": "2026-05-01",
    "city": "Pranchita",
    "state": "PR",
    "address": "",
    "latitude": "-26.0209403",
    "longitude": "-53.7396825",
    "map": "https://www.google.com/maps?q=-26.0209403,-53.7396825",
    "entry_type": "free",
    "entry_amount": ""
  },
  {
    "id": "695ef91e7acfb12e60598098",
    "title": "18Âº Sudoeste Motofest",
    "description": "18Âº Sudoeste Motofest - Encontro tradicional do sudoeste do ParanÃ¡",
    "date": "2026-05-01",
    "city": "Pranchita",
    "state": "PR",
    "address": "",
    "latitude": "-26.0209403",
    "longitude": "-53.7396825",
    "map": "https://www.google.com/maps?q=-26.0209403,-53.7396825",
    "entry_type": "free",
    "entry_amount": ""
  },
  {
    "id": "695ef91e7acfb12e6059808e",
    "title": "Romaria dos Motociclistas Paim Filho",
    "description": "Romaria dos Motociclistas - Encontro religioso e de confraternizaÃ§Ã£o",
    "date": "2026-03-28",
    "city": "Paim Filho",
    "state": "RS",
    "address": "",
    "latitude": "-27.7099371",
    "longitude": "-51.7586234",
    "map": "https://www.google.com/maps?q=-27.7099371,-51.7586234",
    "entry_type": "free",
    "entry_amount": ""
  },
  {
    "id": "695ef91e7acfb12e60598094",
    "title": "4Âº Expo Fierros Durazno",
    "description": "4Âª ExposiÃ§Ã£o de Motos e Carros Antigos",
    "date": "2026-04-11",
    "city": "Durazno",
    "state": "Durazno",
    "address": "",
    "latitude": "-32.8865018",
    "longitude": "-55.6122469",
    "map": "https://www.google.com/maps?q=-32.8865018,-55.6122469",
    "entry_type": "free",
    "entry_amount": ""
  },
  {
    "id": "695ef91e7acfb12e60598092",
    "title": "2Âº Moto Fest Neandertais",
    "description": "2Âº Moto Fest Neandertais Laranjeiras do Sul",
    "date": "2026-04-11",
    "city": "Laranjeiras do Sul",
    "state": "PR",
    "address": "",
    "latitude": "-25.4073197",
    "longitude": "-52.4150132",
    "map": "https://www.google.com/maps?q=-25.4073197,-52.4150132",
    "entry_type": "free",
    "entry_amount": ""
  },
  {
    "id": "695ef91e7acfb12e60598089",
    "title": "2Âº Niver Xoklengs MG",
    "description": "2Âº AniversÃ¡rio do Moto Grupo Xoklengs",
    "date": "2026-03-07",
    "city": "ItaiÃ³polis",
    "state": "SC",
    "address": "",
    "latitude": "-26.3391899",
    "longitude": "-49.9071983",
    "map": "https://www.google.com/maps?q=-26.3391899,-49.9071983",
    "entry_type": "free",
    "entry_amount": ""
  },
  {
    "id": "695ef91e7acfb12e6059808f",
    "title": "Encuentro Solidario Artigas",
    "description": "Encuentro Solidario de Motociclistas en Artigas",
    "date": "2026-04-10",
    "city": "Artigas",
    "state": "Artigas",
    "address": "",
    "latitude": "-30.2560339",
    "longitude": "-57.5898505",
    "map": "https://www.google.com/maps?q=-30.2560339,-57.5898505",
    "entry_type": "donation",
    "entry_amount": ""
  },
  {
    "id": "695ef91e7acfb12e60598091",
    "title": "9Âº Niver Skull Riders MG",
    "description": "9Âº AniversÃ¡rio do Moto Grupo Skull Riders",
    "date": "2026-04-10",
    "city": "Barra do Ribeiro",
    "state": "RS",
    "address": "",
    "latitude": "-30.2925989",
    "longitude": "-51.3033906",
    "map": "https://www.google.com/maps?q=-30.2925989,-51.3033906",
    "entry_type": "free",
    "entry_amount": ""
  },
  {
    "id": "695ef91e7acfb12e6059808d",
    "title": "10Âº Niver Gladius MC Ciudad del Este",
    "description": "10Âº AniversÃ¡rio do Gladius Moto Clube",
    "date": "2026-03-28",
    "city": "Ciudad del Este",
    "state": "Alto ParanÃ¡",
    "address": "",
    "latitude": "-25.4988385",
    "longitude": "-54.6482211",
    "map": "https://www.google.com/maps?q=-25.4988385,-54.6482211",
    "entry_type": "free",
    "entry_amount": ""
  },
  {
    "id": "695ef91e7acfb12e6059808a",
    "title": "16Âº Moto Migrantes",
    "description": "16Âº Moto Migrantes - Encontro tradicional de Agudo",
    "date": "2026-03-13",
    "city": "Agudo",
    "state": "RS",
    "address": "",
    "latitude": "-29.6423259",
    "longitude": "-53.2494005",
    "map": "https://www.google.com/maps?q=-29.6423259,-53.2494005",
    "entry_type": "free",
    "entry_amount": ""
  },
  {
    "id": "695ef91e7acfb12e60598093",
    "title": "3Âº Niver FalcÃµes do Mar MG",
    "description": "3Âº AniversÃ¡rio do Moto Grupo FalcÃµes do Mar",
    "date": "2026-04-11",
    "city": "Antonina",
    "state": "PR",
    "address": "",
    "latitude": "-25.4298854",
    "longitude": "-48.7125431",
    "map": "https://www.google.com/maps?q=-25.4298854,-48.7125431",
    "entry_type": "free",
    "entry_amount": ""
  },
  {
    "id": "695ef91e7acfb12e6059808c",
    "title": "12Âº Encontro Nacional 2T",
    "description": "12Âº Encontro Nacional de Motos 2 Tempos",
    "date": "2026-03-21",
    "city": "Brusque",
    "state": "SC",
    "address": "",
    "latitude": "-27.0964628",
    "longitude": "-48.9136323",
    "map": "https://www.google.com/maps?q=-27.0964628,-48.9136323",
    "entry_type": "free",
    "entry_amount": ""
  },
  {
    "id": "695ef91e7acfb12e60598088",
    "title": "9Âº Estradeiros Motofest",
    "description": "9Âº Estradeiros Motofest Tapejara",
    "date": "2026-03-07",
    "city": "Tapejara",
    "state": "RS",
    "address": "",
    "latitude": "-28.069233",
    "longitude": "-52.0117161",
    "map": "https://www.google.com/maps?q=-28.069233,-52.0117161",
    "entry_type": "free",
    "entry_amount": ""
  },
  {
    "id": "695ef91e7acfb12e60598087",
    "title": "21Âº MotocÃ£o SÃ£o Miguel do Oeste",
    "description": "21Âº MotocÃ£o - Grande encontro de motociclistas",
    "date": "2026-03-06",
    "city": "SÃ£o Miguel do Oeste",
    "state": "SC",
    "address": "",
    "latitude": "-26.7278977",
    "longitude": "-53.5176689",
    "map": "https://www.google.com/maps?q=-26.7278977,-53.5176689",
    "entry_type": "free",
    "entry_amount": ""
  },
  {
    "id": "695ef91e7acfb12e6059808b",
    "title": "Acampamento Ases Campo ErÃª",
    "description": "Acampamento de Motociclistas Ases",
    "date": "2026-03-14",
    "city": "Campo ErÃª",
    "state": "SC",
    "address": "",
    "latitude": "-26.3947432",
    "longitude": "-53.0790495",
    "map": "https://www.google.com/maps?q=-26.3947432,-53.0790495",
    "entry_type": "free",
    "entry_amount": ""
  },
  {
    "id": "695ef91e7acfb12e60598090",
    "title": "4Âº Barra Moto SolidÃ¡rio",
    "description": "4Âº Barra Moto SolidÃ¡rio - Encontro beneficente",
    "date": "2026-04-10",
    "city": "Barra do Ribeiro",
    "state": "RS",
    "address": "",
    "latitude": "-30.2925989",
    "longitude": "-51.3033906",
    "map": "https://www.google.com/maps?q=-30.2925989,-51.3033906",
    "entry_type": "donation",
    "entry_amount": ""
  },
  {
    "id": "695ef91e7acfb12e60598085",
    "title": "9Âº Encontro La Paloma",
    "description": "9Âº Encontro de Motociclistas em La Paloma",
    "date": "2026-02-21",
    "city": "La Paloma",
    "state": "Rocha",
    "address": "",
    "latitude": "",
    "longitude": "",
    "map": "",
    "entry_type": "free",
    "entry_amount": ""
  },
  {
    "id": "695ef91e7acfb12e60598081",
    "title": "12Âº Niver DragÃµes MC Pato Branco",
    "description": "12Âº AniversÃ¡rio dos DragÃµes Moto Clube",
    "date": "2026-02-13",
    "city": "Pato Branco",
    "state": "PR",
    "address": "",
    "latitude": "-26.2295984",
    "longitude": "-52.6712474",
    "map": "https://www.google.com/maps?q=-26.2295984,-52.6712474",
    "entry_type": "free",
    "entry_amount": ""
  },
  {
    "id": "695ef91e7acfb12e6059807c",
    "title": "19Âª Moto Acampada Valle EdÃ©n",
    "description": "19Âª Moto Acampada em Valle EdÃ©n, TacuarembÃ³, Uruguay",
    "date": "2026-02-05",
    "city": "Valle EdÃ©n",
    "state": "TacuarembÃ³",
    "address": "",
    "latitude": "",
    "longitude": "",
    "map": "",
    "entry_type": "free",
    "entry_amount": ""
  },
  {
    "id": "695ef91e7acfb12e60598084",
    "title": "4Âº Moto Rock GaÃºcho",
    "description": "4Âº Moto Rock GaÃºcho em Picada CafÃ©",
    "date": "2026-02-21",
    "city": "Picada CafÃ©",
    "state": "RS",
    "address": "",
    "latitude": "-29.446421",
    "longitude": "-51.136725",
    "map": "https://www.google.com/maps?q=-29.446421,-51.136725",
    "entry_type": "free",
    "entry_amount": ""
  },
  {
    "id": "695ef91e7acfb12e60598079",
    "title": "1Âº Moto Acampamento Escuderia Lobo's",
    "description": "1Âº Moto Acampamento Escuderia Lobo's",
    "date": "2026-01-17",
    "city": "SiderÃ³polis",
    "state": "SC",
    "address": "",
    "latitude": "-28.597588",
    "longitude": "-49.4250007",
    "map": "https://www.google.com/maps?q=-28.597588,-49.4250007",
    "entry_type": "free",
    "entry_amount": ""
  },
  {
    "id": "695ef91e7acfb12e60598080",
    "title": "8Âº Moto Amizade Pinhalzinho",
    "description": "8Âº Moto Amizade - Encontro de Motociclistas",
    "date": "2026-02-07",
    "city": "Pinhalzinho",
    "state": "SC",
    "address": "",
    "latitude": "-26.852586",
    "longitude": "-52.9872478",
    "map": "https://www.google.com/maps?q=-26.852586,-52.9872478",
    "entry_type": "free",
    "entry_amount": ""
  },
  {
    "id": "695ef91e7acfb12e60598086",
    "title": "3Âº Moto Encontro IntegraÃ§Ã£o",
    "description": "3Âº Moto Encontro IntegraÃ§Ã£o em Cidreira",
    "date": "2026-02-27",
    "city": "Cidreira",
    "state": "RS",
    "address": "",
    "latitude": "-30.1657063",
    "longitude": "-50.218331",
    "map": "https://www.google.com/maps?q=-30.1657063,-50.218331",
    "entry_type": "free",
    "entry_amount": ""
  },
  {
    "id": "695ef91e7acfb12e6059807a",
    "title": "1Âº Moto Rock Cruz Alta",
    "description": "1Âº Moto Rock de Cruz Alta com muito rock e motociclismo",
    "date": "2026-01-22",
    "city": "Cruz Alta",
    "state": "RS",
    "address": "",
    "latitude": "-28.645056",
    "longitude": "-53.6058047",
    "map": "https://www.google.com/maps?q=-28.645056,-53.6058047",
    "entry_type": "free",
    "entry_amount": ""
  },
  {
    "id": "695ef91e7acfb12e6059807b",
    "title": "Urubici Moto Festival",
    "description": "Urubici Moto Festival - Encontro de motociclistas na serra catarinense",
    "date": "2026-02-05",
    "city": "Urubici",
    "state": "SC",
    "address": "",
    "latitude": "-28.015663",
    "longitude": "-49.592547",
    "map": "https://www.google.com/maps?q=-28.015663,-49.592547",
    "entry_type": "free",
    "entry_amount": ""
  },
  {
    "id": "695ef91e7acfb12e6059807f",
    "title": "MotoChamp Garibaldi",
    "description": "MotoChamp - Encontro de Motociclistas em Garibaldi",
    "date": "2026-02-07",
    "city": "Garibaldi",
    "state": "RS",
    "address": "",
    "latitude": "-29.2562253",
    "longitude": "-51.5269167",
    "map": "https://www.google.com/maps?q=-29.2562253,-51.5269167",
    "entry_type": "free",
    "entry_amount": ""
  },
  {
    "id": "695ef91e7acfb12e60598082",
    "title": "Expo Moto Punta del Este",
    "description": "ExposiÃ§Ã£o de motocicletas em Punta del Este",
    "date": "2026-02-13",
    "city": "Punta del Este",
    "state": "Maldonado",
    "address": "",
    "latitude": "-34.935756",
    "longitude": "-54.9439915",
    "map": "https://www.google.com/maps?q=-34.935756,-54.9439915",
    "entry_type": "paid",
    "entry_amount": "100"
  },
  {
    "id": "695ef91e7acfb12e6059807e",
    "title": "10Âº Harley's Day Carlos Barbosa",
    "description": "10Âº Harley's Day - Encontro exclusivo de Harleys",
    "date": "2026-02-06",
    "city": "Carlos Barbosa",
    "state": "RS",
    "address": "",
    "latitude": "-29.2978372",
    "longitude": "-51.5005613",
    "map": "https://www.google.com/maps?q=-29.2978372,-51.5005613",
    "entry_type": "free",
    "entry_amount": ""
  },
  {
    "id": "695ef91e7acfb12e60598083",
    "title": "3Âº Niver Facabala MC",
    "description": "3Âº AniversÃ¡rio do Moto Clube Facabala",
    "date": "2026-02-14",
    "city": "SÃ£o Miguel do Oeste",
    "state": "SC",
    "address": "",
    "latitude": "-26.7278977",
    "longitude": "-53.5176689",
    "map": "https://www.google.com/maps?q=-26.7278977,-53.5176689",
    "entry_type": "free",
    "entry_amount": ""
  },
  {
    "id": "695ef91e7acfb12e60598078",
    "title": "2Âº Niver Contestados MC",
    "description": "2Âº AniversÃ¡rio do Moto Clube Contestados",
    "date": "2026-01-17",
    "city": "ChapecÃ³",
    "state": "SC",
    "address": "",
    "latitude": "-27.1110472",
    "longitude": "-52.5958977",
    "map": "https://www.google.com/maps?q=-27.1110472,-52.5958977",
    "entry_type": "free",
    "entry_amount": ""
  },
  {
    "id": "695ef91e7acfb12e60598077",
    "title": "2Âº CostelÃ£o Amizade em Duas Rodas",
    "description": "2Âº CostelÃ£o Amizade em Duas Rodas",
    "date": "2026-01-17",
    "city": "Carlos Barbosa",
    "state": "RS",
    "address": "",
    "latitude": "-29.2978372",
    "longitude": "-51.5005613",
    "map": "https://www.google.com/maps?q=-29.2978372,-51.5005613",
    "entry_type": "free",
    "entry_amount": ""
  },
  {
    "id": "695ef91e7acfb12e60598076",
    "title": "25Âº Motofest JaguarÃ£o",
    "description": "25Âº Motofest Internacional de JaguarÃ£o",
    "date": "2026-01-15",
    "city": "JaguarÃ£o",
    "state": "RS",
    "address": "",
    "latitude": "-32.5662724",
    "longitude": "-53.3765705",
    "map": "https://www.google.com/maps?q=-32.5662724,-53.3765705",
    "entry_type": "free",
    "entry_amount": ""
  },
  {
    "id": "695dd091f76e7965e0686701",
    "title": "AniversÃ¡rio DragÃµes da Alvorada - 11 Anos",
    "description": "Venha comemorar conosco os 11 anos do DragÃµes da Alvorada Moto Grupo!\n\nUm evento especial para celebrar mais um ano de estrada, irmandade e muito motociclismo.\n\nLocal: Hells Dogs Motorcycle Bar\nEndereÃ§o: Av. ParanÃ¡, 3555 - Jardim Polo Centro, Foz do IguaÃ§u",
    "date": "2026-01-24",
    "city": "Foz do IguaÃ§u",
    "state": "PR",
    "address": "Av. ParanÃ¡, 3555 - Jardim Polo Centro",
    "latitude": "-25.5163",
    "longitude": "-54.5854",
    "map": "https://www.google.com/maps?q=-25.5163,-54.5854",
    "entry_type": "free",
    "entry_amount": ""
  },
  {
    "id": "695dbd7dd3421c63ede756cd",
    "title": "2Âº Encontro de Motos - Anarquia Motofest",
    "description": "Segundo encuentro de motos Anarquia Motofest en Santa Rita, Paraguay. Un gran evento que reÃºne a motociclistas de toda la regiÃ³n para celebrar la pasiÃ³n por las dos ruedas.",
    "date": "2026-01-23",
    "city": "Santa Rita",
    "state": "Alto ParanÃ¡",
    "address": "Expo Santa Rita",
    "latitude": "-25.8",
    "longitude": "-55.08",
    "map": "https://www.google.com/maps?q=-25.8,-55.08",
    "entry_type": "free",
    "entry_amount": ""
  },
  {
    "id": "695db9e4df3dbc7e08ee55ba",
    "title": "2Âª Moto Mateada 2026 - Discuderia Lobo's",
    "description": "ğŸ§‰ğŸï¸ 2Âª EDIÃ‡ÃƒO MOTO MATEADA 2026\n\nDiscuderia Lobo's - Horizontina, RS\n\nğŸ– JANTAR DE LANÃ‡AMENTO!\n\nğŸ•ï¸ ESTRUTURA:\nâ€¢ Camping\nâ€¢ PavilhÃ£o\nâ€¢ Ar livre\n\nğŸ“ InformaÃ§Ãµes: (55) 9 9963 5962\n\nğŸ“ Local: Sociedade AquÃ¡tico Colina Verde\n\nRealizaÃ§Ã£o: Discuderia Lobo's\nOrganizaÃ§Ã£o: Lobos do Asfalto\nApoio: Kiefer, RW Eventos e outros parceiros",
    "date": "2026-05-16",
    "city": "Redentora",
    "state": "RS",
    "address": "Sociedade AquÃ¡tico Colina Verde",
    "latitude": "-27.6616073",
    "longitude": "-53.6421338",
    "map": "https://www.google.com/maps?q=-27.6616073,-53.6421338",
    "entry_type": "free",
    "entry_amount": ""
  },
  {
    "id": "695db9b736bf6b53e02c7f37",
    "title": "11Âº Encontro de Motociclistas - Rotary Club Rondon 2026",
    "description": "ğŸï¸ 11Âº ENCONTRO DE MOTOCICLISTAS\n\nRealizaÃ§Ã£o: Rotary Club e Interact Club de Rondon\n\nğŸ´ PRAÃ‡A DE ALIMENTAÃ‡ÃƒO:\nâ€¢ Espetinhos\nâ€¢ Bar\nâ€¢ Wisqueria\n\nğŸ¸ DUAS SUPER BANDAS:\nâ€¢ Creedence Long Play\nâ€¢ Maluklados\n\nğŸ“ LOCAL: Casa da Amizade\nğŸ• HORÃRIO: A partir das 12h",
    "date": "2026-02-07",
    "city": "Rondon",
    "state": "PR",
    "address": "Casa da Amizade",
    "latitude": "-23.4171839",
    "longitude": "-52.7722221",
    "map": "https://www.google.com/maps?q=-23.4171839,-52.7722221",
    "entry_type": "free",
    "entry_amount": ""
  },
  {
    "id": "695db94bff15b7c4a864369a",
    "title": "EstradeirÃ£o - 17 Anos Moto Clube Estradeiros",
    "description": "ğŸï¸ ESTRADEIRÃƒO\n\nğŸ‰ ANIVERSÃRIO 17 ANOS\nMOTO CLUBE ESTRADEIROS\n\nğŸ¸ ROCK âš¡ CERVEJA âš¡ MOTOCICLISMO\n\nğŸ“ Entrada para a Linha Bom PrincÃ­pio\nLinha Bom PrincÃ­pio do Oeste\nToledo - PR",
    "date": "2026-02-07",
    "city": "Toledo",
    "state": "PR",
    "address": "Entrada para a Linha Bom PrincÃ­pio, Linha Bom PrincÃ­pio do Oeste",
    "latitude": "-24.7222438",
    "longitude": "-53.7402476",
    "map": "https://www.google.com/maps?q=-24.7222438,-53.7402476",
    "entry_type": "free",
    "entry_amount": ""
  },
  {
    "id": "695db924b4cfffea7de38d15",
    "title": "Moto Niver - Serginho's Bar",
    "description": "ğŸï¸ MOTO NIVER no Serginho's Bar!\n\nğŸ“… 24 de Janeiro (SÃ¡bado)\nğŸ• 11h00\n\nğŸ” MENU:\nPÃ£o com carne - R$ 20,00\n\nğŸ¸ ATRAÃ‡Ã•ES:\nâ€¢ Bico & Rafa (Rock | Blues)\nâ€¢ 3 por 4\n\nğŸ“ InformaÃ§Ãµes: (46) 99961-7246",
    "date": "2026-01-24",
    "city": "Toledo",
    "state": "PR",
    "address": "Rua Henrique Bombardelli, 310, Jardim ConcÃ³rdia",
    "latitude": "-24.7222438",
    "longitude": "-53.7402476",
    "map": "https://www.google.com/maps?q=-24.7222438,-53.7402476",
    "entry_type": "free",
    "entry_amount": ""
  },
  {
    "id": "695c58fa2a560c72f751cf0e",
    "title": "Bike Builder Show Montevideo",
    "description": "",
    "date": "2026-10-03",
    "city": "Montevideo",
    "state": "Montevideo",
    "address": "",
    "latitude": "-34.9011",
    "longitude": "-56.1645",
    "map": "https://www.google.com/maps?q=-34.9011,-56.1645",
    "entry_type": "paid",
    "entry_amount": "150"
  },
  {
    "id": "695c58fa2a560c72f751cef7",
    "title": "12Âº Encontro Nacional 2T",
    "description": "",
    "date": "2026-03-21",
    "city": "Brusque",
    "state": "SC",
    "address": "",
    "latitude": "-27.0964628",
    "longitude": "-48.9136323",
    "map": "https://www.google.com/maps?q=-27.0964628,-48.9136323",
    "entry_type": "free",
    "entry_amount": ""
  },
  {
    "id": "695c58fa2a560c72f751cefa",
    "title": "Encuentro Solidario Artigas",
    "description": "",
    "date": "2026-04-10",
    "city": "Artigas",
    "state": "Artigas",
    "address": "",
    "latitude": "-30.2560339",
    "longitude": "-57.5898505",
    "map": "https://www.google.com/maps?q=-30.2560339,-57.5898505",
    "entry_type": "donation",
    "entry_amount": ""
  },
  {
    "id": "695c58fa2a560c72f751ceff",
    "title": "4Âº Expo Fierros Durazno",
    "description": "",
    "date": "2026-04-11",
    "city": "Durazno",
    "state": "Durazno",
    "address": "",
    "latitude": "-32.8865018",
    "longitude": "-55.6122469",
    "map": "https://www.google.com/maps?q=-32.8865018,-55.6122469",
    "entry_type": "free",
    "entry_amount": ""
  },
  {
    "id": "695c58fa2a560c72f751cefe",
    "title": "2Âº Moto Fest Neandertais",
    "description": "",
    "date": "2026-04-11",
    "city": "Laranjeiras do Sul",
    "state": "PR",
    "address": "",
    "latitude": "-25.4073197",
    "longitude": "-52.4150132",
    "map": "https://www.google.com/maps?q=-25.4073197,-52.4150132",
    "entry_type": "free",
    "entry_amount": ""
  },
  {
    "id": "695c58fa2a560c72f751cee0",
    "title": "16Âº MOTO ANIVERSÃRIO â€“ LIBERDADE SEM LIMITES",
    "description": "ğŸ”¥ğŸï¸ O evento mais OLD SCHOOL do Brasil!\n\nğŸ“… 09 â€¢ 10 â€¢ 11 de JANEIRO\n\nğŸ‘‰ SEXTA (09/01)\nğŸ Janta da Polenta\nğŸ’ƒ BailÃ£o GaÃºcho\nğŸšª Abertura oficial\n\nğŸ‘‰ SÃBADO (10/01) â€“ O DIA DO 0800! ğŸ”¥\nâ˜•ğŸ½ï¸ğŸ‰ CafÃ©, almoÃ§o e melancia 0800\nğŸ¯ Torneio de Bodoque\nğŸ‚ Bolo de AniversÃ¡rio 0800\nğŸ¸ Rock na veia + ğŸ¶ Flashback\n\nğŸ‘‰ DOMINGO (11/01)\nâ˜• CafÃ© 0800\nğŸ Despedida raiz, olho no olho\n\nâš™ï¸ Evento raiz, irmandade e estrada!\nNÃ£o marca bobeira! ğŸï¸ğŸ”¥",
    "date": "2026-01-09",
    "city": "RomelÃ¢ndia",
    "state": "SC",
    "address": "Camping Borsatto",
    "latitude": "-26.6783317",
    "longitude": "-53.3189986",
    "map": "https://www.google.com/maps?q=-26.6783317,-53.3189986",
    "entry_type": "paid",
    "entry_amount": "35"
  },
  {
    "id": "695c58fa2a560c72f751cee4",
    "title": "2Âº Niver Contestados MC",
    "description": "",
    "date": "2026-01-17",
    "city": "ChapecÃ³",
    "state": "SC",
    "address": "",
    "latitude": "-27.1110472",
    "longitude": "-52.5958977",
    "map": "https://www.google.com/maps?q=-27.1110472,-52.5958977",
    "entry_type": "free",
    "entry_amount": ""
  },
  {
    "id": "695c58fa2a560c72f751cefd",
    "title": "13Âº Niver DivisÃ£o do Norte MC",
    "description": "",
    "date": "2026-04-11",
    "city": "Rio Negrinho",
    "state": "SC",
    "address": "",
    "latitude": "-26.259075",
    "longitude": "-49.517746",
    "map": "https://www.google.com/maps?q=-26.259075,-49.517746",
    "entry_type": "free",
    "entry_amount": ""
  },
  {
    "id": "695c58fa2a560c72f751cee2",
    "title": "25Âº Motofest",
    "description": "",
    "date": "2026-01-15",
    "city": "JaguarÃ£o",
    "state": "RS",
    "address": "",
    "latitude": "-32.5662724",
    "longitude": "-53.3765705",
    "map": "https://www.google.com/maps?q=-32.5662724,-53.3765705",
    "entry_type": "free",
    "entry_amount": ""
  },
  {
    "id": "695c58fa2a560c72f751cedf",
    "title": "7Âº Encontro Rota 434",
    "description": "",
    "date": "2026-01-09",
    "city": "CiriÃ¡co",
    "state": "RS",
    "address": "",
    "latitude": "-28.3429139",
    "longitude": "-51.8763682",
    "map": "https://www.google.com/maps?q=-28.3429139,-51.8763682",
    "entry_type": "free",
    "entry_amount": ""
  },
  {
    "id": "695c58fa2a560c72f751cee8",
    "title": "Marau em 2 Rodas",
    "description": "",
    "date": "2026-02-06",
    "city": "Marau",
    "state": "RS",
    "address": "",
    "latitude": "-28.4493053",
    "longitude": "-52.2002156",
    "map": "https://www.google.com/maps?q=-28.4493053,-52.2002156",
    "entry_type": "free",
    "entry_amount": ""
  },
  {
    "id": "695c58fa2a560c72f751cf01",
    "title": "18Âº Sudoeste Motofest",
    "description": "",
    "date": "2026-05-01",
    "city": "Pranchita",
    "state": "PR",
    "address": "",
    "latitude": "-26.0209403",
    "longitude": "-53.7396825",
    "map": "https://www.google.com/maps?q=-26.0209403,-53.7396825",
    "entry_type": "free",
    "entry_amount": ""
  },
  {
    "id": "695c58fa2a560c72f751cf06",
    "title": "2Âº Moto Festival Amigos do Asfalto MG",
    "description": "",
    "date": "2026-05-15",
    "city": "Igrejinha",
    "state": "RS",
    "address": "",
    "latitude": "-29.569318",
    "longitude": "-50.791894",
    "map": "https://www.google.com/maps?q=-29.569318,-50.791894",
    "entry_type": "free",
    "entry_amount": ""
  },
  {
    "id": "695c58fa2a560c72f751cf0b",
    "title": "Festival Rota 01",
    "description": "",
    "date": "2026-07-04",
    "city": "Ponta Grossa",
    "state": "PR",
    "address": "",
    "latitude": "-25.0891685",
    "longitude": "-50.1601812",
    "map": "https://www.google.com/maps?q=-25.0891685,-50.1601812",
    "entry_type": "free",
    "entry_amount": ""
  },
  {
    "id": "695c58fa2a560c72f751cee1",
    "title": "19Âº Moto Gole",
    "description": "",
    "date": "2026-01-10",
    "city": "Piraquara",
    "state": "PR",
    "address": "",
    "latitude": "-25.4423273",
    "longitude": "-49.0604473",
    "map": "https://www.google.com/maps?q=-25.4423273,-49.0604473",
    "entry_type": "free",
    "entry_amount": ""
  },
  {
    "id": "695bb90c0f857fe61e20fac8",
    "title": "Encontro Internacional de Motociclistas ğŸï¸ğŸ›µ 7Âº IndomÃ¡veis Motors de 13 a 16 de Novembro ğŸ”œ A estrada te chama ğŸš€",
    "description": "Encontro Internacional de Motociclistas ğŸï¸ğŸ›µ\n7Âº IndomÃ¡veis Motors de 13 a 16 de Novembro\nğŸ”œ A estrada te chama ğŸš€\nğŸ“Cascavel/PR",
    "date": "2026-03-07",
    "city": "cascavel",
    "state": "pr",
    "address": "Rodovia BR 277 KM 596 - Santos Dumont, Cascavel - PR, Cascavel, PR, Brazil",
    "latitude": "-24.9554996",
    "longitude": "-53.4560544",
    "map": "https://www.google.com/maps?q=-24.9554996,-53.4560544",
    "entry_type": "free",
    "entry_amount": "0"
  },
  {
    "id": "691296a35395deb3d35046f7",
    "title": "Encontro Internacional de Motociclistas ğŸï¸ğŸ›µ 7Âº IndomÃ¡veis Motors de 13 a 16 de Novembro ğŸ”œ A estrada te chama ğŸš€",
    "description": "Encontro Internacional de Motociclistas ğŸï¸ğŸ›µ\n7Âº IndomÃ¡veis Motors de 13 a 16 de Novembro\nğŸ”œ A estrada te chama ğŸš€\nğŸ“Cascavel/PR",
    "date": "2026-03-07",
    "city": "cascavel",
    "state": "pr",
    "address": "Rodovia BR 277 KM 596 - Santos Dumont, Cascavel - PR, Cascavel, PR, Brazil",
    "latitude": "-24.9554996",
    "longitude": "-53.4560544",
    "map": "https://www.google.com/maps?q=-24.9554996,-53.4560544",
    "entry_type": "free",
    "entry_amount": "0"
  },
  {
    "id": "6912923e67f82ef7c6f51693",
    "title": "Role do Old  + acampamento",
    "description": "Role do MC Old West Born, raiz com acampamento ",
    "date": "2026-01-18",
    "city": "varias cidades ",
    "state": "PR",
    "address": "rua sanabrilove",
    "latitude": "-25.2404183",
    "longitude": "-53.9835004",
    "map": "https://www.google.com/maps?q=-25.2404183,-53.9835004",
    "entry_type": "paid",
    "entry_amount": "0"
  }
]